city,cloudiness,country,date,humidity,lat,lon,temp_k,wind_speed
Hajnówka,0,PL,1584998796,63,52.74,23.58,269.69,2.01
Jiuquan,58,CN,1584998797,35,39.74,98.52,276.92,1.96
Ushuaia,75,AR,1584998798,67,-54.8,-68.3,287.15,9.8
Cherskiy,100,RU,1584998799,93,68.75,161.3,262.92,4.16
Punta Arenas,97,CL,1584998642,72,-53.15,-70.92,287.94,7.2
Khatanga,93,RU,1584998802,98,71.97,102.5,245.32,4.01
Margate,16,GB,1584998803,86,51.38,1.39,279.5,2.1
Hermanus,100,ZA,1584998804,81,-34.42,19.23,290.06,0.45
Vardø,100,NO,1584998805,69,70.37,31.11,276.15,8.7
Airai,34,TL,1584998806,79,-8.93,125.41,290.92,2.03
Cape Town,100,ZA,1584998663,82,-33.93,18.42,291.28,5.7
Lebu,100,CL,1584998808,98,-37.62,-73.65,287.12,4.55
Faanui,23,PF,1584998809,65,-16.48,-151.75,301.62,0.31
Port Hardy,75,CA,1584998810,80,50.7,-127.42,278.15,2.6
Hobart,20,AU,1584998811,81,-42.88,147.33,280.83,4.1
Arrondissement de Provins,0,FR,1584998812,41,48.58,3.17,278.31,3.6
Auki,97,SB,1584998813,63,-8.77,160.7,301.62,0.88
São Filipe,11,CV,1584998814,76,14.9,-24.5,293.42,7.33
Lorengau,100,PG,1584998815,81,-2.02,147.27,300.52,4.63
Lavrentiya,100,RU,1584998820,92,65.58,-171.0,272.02,5.61
Yangi Marg`ilon,100,UZ,1584998821,71,40.43,71.72,286.15,0.55
Atuona,0,PF,1584998822,77,-9.8,-139.03,301.02,4.82
Dikson,100,RU,1584998823,94,73.51,80.55,270.32,7.7
Tuatapere,100,NZ,1584998824,89,-46.13,167.68,282.59,5.36
Busselton,62,AU,1584998825,42,-33.65,115.33,291.58,4.01
Albany,90,US,1584998826,92,42.6,-73.97,272.6,3.6
Twentynine Palms,1,US,1584998827,24,34.14,-116.05,292.07,6.2
Rikitea,100,PF,1584998828,75,-23.12,-134.97,298.72,0.96
Thompson,40,CA,1584998829,42,55.74,-97.86,272.15,3.1
Ust'-Koksa,98,RU,1584998830,97,50.27,85.61,258.02,1.37
Broken Hill,100,AU,1584998831,33,-31.95,141.43,287.15,2.1
Ozernovskiy,65,RU,1584998832,92,51.5,156.52,272.92,5.5
Chokurdakh,76,RU,1584998833,99,70.63,147.92,247.02,3.3
Mahabalipuram,40,IN,1584998834,83,12.63,80.17,299.62,1.5
Puerto Ayora,20,EC,1584998835,70,-0.74,-90.35,301.05,5.1
Jumla,49,NP,1584998836,40,29.27,82.18,273.82,2.51
Kapaa,90,US,1584998837,61,22.08,-159.32,298.28,10.3
Qaanaaq,100,GL,1584998839,92,77.48,-69.36,254.72,1.27
Cockburn Town,40,TC,1584998840,69,21.46,-71.14,298.15,7.7
Bowen,40,AU,1584998841,88,-20.02,148.23,297.33,4.1
Te Anau,100,NZ,1584998842,94,-45.42,167.72,277.62,2.01
Mil'kovo,100,RU,1584998843,96,54.72,158.62,268.82,1.51
Omsukchan,1,RU,1584998844,95,62.53,155.8,259.42,2.89
Namatanai,100,PG,1584998584,75,-3.67,152.43,301.12,1.46
Bluff,100,NZ,1584998846,89,-46.6,168.33,282.59,5.36
Clyde River,75,CA,1584998848,83,70.47,-68.59,251.15,1.5
Coquimbo,20,CL,1584998590,77,-29.95,-71.34,292.15,6.2
Ponta do Sol,40,PT,1584998851,67,32.67,-17.1,287.98,6.7
Shingū,0,JP,1584998852,53,33.73,135.98,280.92,4.55
Cienfuegos,0,CU,1584998854,51,22.15,-80.44,302.15,6.2
Willmar,40,US,1584998856,65,45.12,-95.04,279.92,1.5
Merauke,100,ID,1584998858,96,-8.47,140.33,297.22,3.13
Kavaratti,0,IN,1584998861,70,10.57,72.64,301.32,2.98
Hithadhoo,100,MV,1584998862,71,-0.6,73.08,302.12,3.21
Kjøpsvik,75,NO,1584998863,86,68.1,16.37,276.55,12.9
Sonāmukhi,0,IN,1584998864,65,23.3,87.42,295.32,1.72
Bundaberg,90,AU,1584998866,94,-24.85,152.35,295.25,3.6
Narsaq,40,GL,1584998867,45,60.92,-46.05,269.15,1.5
Gushikawa,1,JP,1584998868,88,26.35,127.87,290.75,2.6
Saint Paul Harbor,1,US,1584998870,36,57.79,-152.41,282.15,11.3
Tuktoyaktuk,40,CA,1584998871,70,69.45,-133.04,255.15,6.2
Hilo,90,US,1584998838,78,19.73,-155.09,292.8,6.28
Mar del Plata,67,AR,1584998777,44,-38.0,-57.56,298.23,5.1
George Town,40,MY,1584998579,88,5.41,100.34,300.06,1.5
Vila Franca do Campo,75,PT,1584998876,66,37.72,-25.43,286.15,2.6
Bethel,90,US,1584998622,98,41.37,-73.41,275.64,5.7
Ucluelet,90,CA,1584998878,93,48.93,-125.55,278.77,4.1
Palmas,40,BR,1584998879,66,-10.21,-48.36,303.15,1.0
Lázaro Cárdenas,0,MX,1584998880,36,17.96,-102.2,305.12,4.6
Trelew,69,AR,1584998881,21,-43.25,-65.31,302.42,10.24
Montepuez,92,MZ,1584998882,98,-13.13,39.0,294.42,1.34
Geraldton,0,AU,1584998883,44,-28.77,114.6,299.0,7.2
Warrnambool,100,AU,1584998884,89,-38.38,142.48,284.82,2.49
Walvis Bay,3,NA,1584998885,77,-22.96,14.51,290.02,3.1
Waipawa,25,NZ,1584998887,54,-41.41,175.52,284.97,5.7
Jamestown,90,US,1584998888,100,42.1,-79.24,276.73,2.1
Codrington,100,AU,1584998889,62,-38.27,141.97,287.72,3.86
Deputatsky,68,RU,1584998890,97,69.3,139.9,248.42,0.98
Henties Bay,18,NA,1584998891,91,-22.12,14.28,289.82,0.89
Klaksvík,49,FO,1584998893,75,62.23,-6.59,279.15,7.2
Katsuura,20,JP,1584998894,52,35.13,140.3,278.6,10.3
Vlašim,0,CZ,1584998895,46,49.71,14.9,270.96,2.1
Husavik,20,IS,1584998897,59,66.04,-17.34,276.15,12.3
Mataura,100,NZ,1584998898,89,-46.19,168.86,282.59,5.36
Ouadda,90,CF,1584998899,32,8.08,22.4,300.72,1.79
Djibouti,1,DJ,1584998900,78,11.5,42.5,301.15,2.6
Port Elizabeth,81,ZA,1584998902,82,-33.92,25.57,292.15,5.1
Balma,23,FR,1584998837,76,43.61,1.5,283.14,3.6
Hibbing,1,US,1584998904,41,47.43,-92.94,278.02,1.5
Nouadhibou,0,MR,1584998905,82,20.93,-17.03,291.15,4.1
Tocuila,0,MX,1584998906,35,18.95,-97.02,299.32,2.55
Havøysund,75,NO,1584998908,64,71.0,24.66,277.15,11.3
São João da Barra,20,BR,1584998909,65,-21.64,-41.05,298.15,6.2
Ribeira Grande,65,PT,1584998910,81,38.52,-28.7,286.02,5.64
Nizhniy Tsasuchey,95,RU,1584998911,83,50.52,115.13,274.92,3.8
Businga,0,CD,1584998912,73,3.33,20.88,297.22,0.8
Vaini,20,TO,1584998913,78,-21.2,-175.2,301.15,3.1
Mergen,0,CN,1584998914,61,49.18,125.22,271.42,5.01
Staryy Nadym,100,RU,1584998915,87,65.61,72.68,268.92,9.28
Mahébourg,40,MU,1584998916,94,-20.41,57.7,298.98,4.6
Russell,75,US,1584998917,83,32.35,-85.2,296.44,4.2
Caravelas,97,BR,1584998918,72,-17.71,-39.25,299.72,10.73
Mahon,40,ES,1584998919,87,39.89,4.27,287.15,5.7
Bredasdorp,100,ZA,1584998921,82,-34.53,20.04,288.16,1.5
Paita,25,PE,1584998922,100,-5.09,-81.11,290.15,7.2
San Policarpo,100,PH,1584998923,79,12.18,125.51,299.22,5.16
Bengkulu,100,ID,1584998925,90,-3.8,102.27,296.22,1.08
Bétérou,100,BJ,1584998926,72,9.2,2.26,298.82,3.77
Ambilobe,9,MG,1584998927,89,-13.2,49.05,296.82,2.53
Norman Wells,20,CA,1584998928,55,65.28,-126.83,260.15,5.1
Jinchang,100,CN,1584998929,36,38.5,102.17,278.52,2.48
Kaitangata,100,NZ,1584998931,87,-46.28,169.85,279.82,1.34
Esperance,69,AU,1584998932,93,-33.87,121.9,288.15,3.6
Olinda,40,BR,1584998934,74,-8.01,-34.86,303.15,2.6
Ferme-Neuve,100,CA,1584998935,93,46.7,-75.45,272.72,3.25
Bubaque,35,GW,1584998936,76,11.28,-15.83,298.52,10.23
Lüderitz,0,NA,1584998937,60,-26.65,15.16,294.15,8.2
Nikolskoye,0,RU,1584998938,67,59.7,30.79,268.58,2.0
La Providencia,91,MX,1584998939,33,28.72,-111.58,300.5,2.68
General Cepeda,5,MX,1584998940,27,25.38,-101.45,306.15,2.6
Corpus Christi,20,US,1584998644,74,27.8,-97.4,300.4,10.3
Belaya Gora,60,RU,1584998942,97,68.53,146.42,249.82,2.77
Tasiilaq,76,GL,1584998945,86,65.61,-37.64,270.15,3.1
Erzin,75,TR,1584998946,82,36.96,36.2,286.86,1.5
Grindavik,75,IS,1584998947,74,63.84,-22.43,275.68,18.0
Cidreira,0,BR,1584998948,74,-30.18,-50.21,296.82,9.84
Verkhoyansk,100,RU,1584998949,85,67.54,133.38,255.22,1.73
Mandalgovi,100,MN,1584998950,42,45.76,106.27,278.22,4.92
Ligayan,99,PH,1584998951,77,4.65,119.47,300.82,2.09
Ushtobe,0,KZ,1584998952,71,45.25,77.98,272.92,4.13
Carnarvon,0,AU,1584998953,69,-24.87,113.63,297.15,3.1
Bathsheba,75,BB,1584998954,69,13.22,-59.52,300.15,7.2
Kulhudhuffushi,0,MV,1584998955,68,6.62,73.07,301.62,2.28
Tevaitoa,66,PF,1584998957,64,-16.78,-151.5,301.72,0.58
Antofagasta,66,CL,1584998813,72,-23.65,-70.4,292.15,6.7
Meleuz,100,RU,1584998959,88,52.97,55.92,273.72,7.32
Forsytheganj,0,BY,1584998960,60,52.63,29.73,270.02,2.64
Kavieng,100,PG,1584998961,71,-2.57,150.8,301.52,1.4
Sabang,1,ID,1584998963,66,5.89,95.32,301.92,4.25
Port Alfred,97,ZA,1584998964,96,-33.59,26.89,292.04,1.34
Maslovare,90,BA,1584998965,92,44.57,17.53,272.15,1.0
Yellowknife,5,CA,1584998700,49,62.46,-114.35,257.07,9.3
Chui,41,UY,1584998968,65,-33.7,-53.46,296.92,6.19
Necochea,95,AR,1584998913,32,-38.55,-58.74,302.59,8.05
Guarapuava,0,BR,1584998971,53,-25.4,-51.46,293.32,1.72
Mūl,0,IN,1584998972,30,20.07,79.67,299.32,0.91
San Cristobal,40,VE,1584998747,52,7.77,-72.22,304.15,5.7
New Norfolk,20,AU,1584998974,81,-42.78,147.06,280.74,4.1
Barrow,90,US,1584998975,77,71.29,-156.79,259.15,2.1
Hay River,75,CA,1584998976,65,60.82,-115.8,259.15,8.2
Vredendal,100,ZA,1584998977,80,-31.67,18.5,289.12,3.68
Pevek,100,RU,1584998978,86,69.7,170.31,265.72,6.64
Kahului,40,US,1584998979,54,20.89,-156.47,296.05,8.7
Saldanha,99,ZA,1584998981,77,-33.01,17.94,290.15,2.6
East London,34,ZA,1584998982,83,-33.02,27.91,296.92,2.94
Bandarbeyla,100,SO,1584998983,76,9.49,50.81,301.42,3.7
Chumikan,0,RU,1584998984,76,54.72,135.31,262.72,1.33
Troitsko-Pechorsk,15,RU,1584998985,93,62.71,56.2,266.92,3.18
Avarua,100,CK,1584998986,88,-21.21,-159.78,301.15,3.6
Mehrān,0,IR,1584998987,86,33.12,46.16,278.15,1.0
Butaritari,38,KI,1584998988,77,3.07,172.79,302.22,8.4
Verkhnevilyuysk,100,RU,1584998989,94,63.45,120.32,267.22,4.24
Guasdualito,75,VE,1584998990,29,7.24,-70.73,310.15,1.5
Castro,35,BR,1584998991,65,-24.79,-50.01,292.92,2.64
Okhotsk,59,RU,1584998992,80,59.38,143.3,258.92,3.74
Monrovia,20,LR,1584998993,94,6.3,-10.8,299.15,0.19
Dārāb,0,IR,1584998994,66,28.75,54.54,282.92,0.08
Lompoc,90,US,1584998985,72,34.64,-120.46,288.98,3.6
Honningsvåg,75,NO,1584998996,64,70.98,25.97,276.73,11.3
Saskylakh,6,RU,1584998997,95,71.92,114.08,239.62,4.07
Barsovo,0,RU,1584998998,66,61.17,73.17,264.15,4.0
Mabaruma,35,GY,1584999000,62,8.2,-59.78,301.92,3.33
Ancud,90,CL,1584999001,100,-41.87,-73.82,288.15,4.6
Mayo,90,US,1584998758,95,38.89,-76.51,280.35,5.1
Port Lincoln,82,AU,1584999003,80,-34.73,135.87,289.12,4.26
Dingle,11,PH,1584999004,88,11.0,122.67,296.12,3.77
Calama,0,CL,1584999006,25,-22.47,-68.93,296.15,10.8
Bilibino,100,RU,1584999007,94,68.05,166.44,263.92,1.57
Palmer,90,US,1584999008,97,42.16,-72.33,273.17,3.6
Arraial do Cabo,40,BR,1584999009,69,-22.97,-42.03,298.15,2.6
Aswān,41,EG,1584999011,19,24.09,32.91,298.15,1.5
Osmeña,100,PH,1584999012,79,10.52,119.93,300.62,7.08
Ixtapa,5,MX,1584999013,57,20.7,-105.2,299.99,5.1
Paamiut,7,GL,1584999014,70,61.99,-49.67,261.82,4.82
Erenhot,98,CN,1584999015,35,43.65,111.98,280.42,3.35
Leningradskiy,100,RU,1584999016,75,69.38,178.42,266.52,2.32
Kudahuvadhoo,0,MV,1584999017,68,2.67,72.89,301.42,3.65
Niquero,0,CU,1584999019,48,20.04,-77.58,301.82,2.85
Iqaluit,75,CA,1584999020,78,63.75,-68.51,263.95,2.6
Severo-Kuril'sk,89,RU,1584999021,90,50.68,156.12,270.72,4.56
Laurel,90,US,1584999003,93,39.1,-76.85,280.03,2.6
La Plata,0,AR,1584999002,35,-34.92,-57.95,301.79,4.1
St. George's,20,GD,1584999024,66,12.06,-61.75,302.15,7.7
Kumul,0,CN,1584999025,37,42.8,93.45,282.92,9.39
Upernavik,100,GL,1584999026,80,72.79,-56.15,253.92,5.29
Saint-Augustin,33,CA,1584999027,75,51.23,-58.65,269.02,10.15
Zeya,43,RU,1584999028,90,53.75,127.27,262.32,3.28
Qui Nhon,96,VN,1584999029,82,13.77,109.23,296.22,1.12
Kitob,100,UZ,1584999032,66,39.08,66.83,286.42,1.46
Tazovsky,100,RU,1584999033,94,67.47,78.7,268.62,8.38
Tiksi,100,RU,1584999034,99,71.69,128.87,251.72,4.38
Vila Velha,40,BR,1584998887,65,-20.33,-40.29,297.9,5.1
Abong Mbang,83,CM,1584999036,86,3.98,13.18,295.22,0.33
Mezen',100,RU,1584999037,88,65.85,44.24,270.02,5.93
Corn Island,37,NI,1584999039,75,12.17,-83.04,300.42,6.13
Birjand,75,IR,1584999040,87,32.87,59.22,279.15,4.1
Kazachinskoye,25,RU,1584999041,95,57.7,93.28,255.32,2.4
Udachny,90,RU,1584999042,75,66.42,112.4,246.15,5.0
San Miguel de Tucumán,2,AR,1584999043,55,-26.82,-65.22,304.15,5.1
Maceió,100,BR,1584999007,83,-9.67,-35.74,301.15,5.1
Vrangel',0,RU,1584999045,73,42.73,133.08,274.02,8.12
Santander,20,ES,1584999046,87,43.46,-3.8,285.6,0.5
Nalobikha,18,RU,1584999047,95,53.2,84.6,259.72,1.73
Rumburk,0,CZ,1584999049,50,50.95,14.56,270.39,2.6
Pitimbu,20,BR,1584999050,79,-7.47,-34.81,302.15,3.6
Saint-Philippe,70,RE,1584999051,78,-21.36,55.77,297.03,2.6
Tefé,40,BR,1584999052,70,-3.35,-64.71,303.15,3.1
Xai-Xai,0,MZ,1584999053,96,-25.05,33.64,294.92,1.02
Wad Medani,0,SD,1584999054,11,14.4,33.52,299.12,4.78
Ilulissat,100,GL,1584999055,78,69.22,-51.1,262.15,5.7
Pontianak,100,ID,1584999056,98,-0.03,109.33,296.42,0.59
Saint George,1,US,1584998990,71,37.1,-113.58,281.49,2.6
La Unión,58,PE,1584999059,29,-5.4,-80.75,307.52,7.73
Portland,75,US,1584998782,70,45.52,-122.68,282.37,7.2
Rocha,8,UY,1584999061,62,-34.48,-54.33,296.92,5.86
Kokorevka,12,RU,1584999062,60,52.59,34.28,269.22,2.85
Cabo San Lucas,5,MX,1584999002,36,22.89,-109.91,299.02,5.1
Kaeo,0,NZ,1584999064,85,-35.1,173.78,288.97,3.13
Armação de Pêra,20,PT,1584999065,87,37.1,-8.36,286.31,3.6
Hong Kong,20,HK,1584998809,83,22.29,114.16,294.49,6.7
Nanortalik,0,GL,1584999067,55,60.14,-45.24,270.52,19.11
Ternate,100,ID,1584999068,93,0.8,127.4,296.22,1.61
La Cruz,52,MX,1584999069,63,23.92,-106.9,299.82,3.13
Souillac,40,MU,1584999070,94,-20.52,57.52,298.97,4.6
Shīeli,13,KZ,1584999071,29,44.17,66.75,279.92,5.84
Valdez,100,EC,1584999073,72,1.25,-78.98,301.32,3.47
Tekeli,0,KZ,1584999074,29,44.83,78.82,266.62,3.35
Samarai,99,PG,1584999075,87,-10.62,150.67,299.32,1.78
Severo-Yeniseyskiy,100,RU,1584999077,99,60.37,93.04,249.62,2.29
Catania,75,IT,1584999079,81,37.5,15.09,282.54,1.0
Karatuzskoye,100,RU,1584999080,76,53.61,92.87,264.72,3.61
Dargaville,40,NZ,1584999081,64,-35.93,173.88,289.12,5.91
Turan,20,VN,1584999082,88,16.07,108.22,296.3,0.5
Balad,0,IQ,1584999083,44,34.02,44.15,290.02,3.0
Santa Cruz de la Sierra,75,BO,1584998939,70,-17.8,-63.17,303.15,1.0
Rongcheng,15,CN,1584999085,71,30.63,117.85,284.62,1.25
Horodyshche,0,UA,1584999086,44,49.28,31.45,271.32,4.62
Terra Rica,0,BR,1584999087,73,-22.71,-52.62,298.02,3.19
Tabou,100,CI,1584999088,96,4.42,-7.35,296.32,2.41
Turukhansk,100,RU,1584999089,92,65.82,87.98,252.22,5.9
Broome,90,US,1584999091,93,42.25,-75.83,274.11,4.1
Itupiranga,100,BR,1584999092,83,-5.13,-49.33,301.15,3.6
Bud,90,US,1584999093,75,39.45,-86.18,279.73,2.1
Salalah,1,OM,1584999094,44,17.02,54.09,299.15,4.1
Igarka,100,RU,1584999095,95,67.47,86.58,256.02,7.56
Urusha,100,RU,1584999096,96,54.05,122.9,265.52,1.01
Longyearbyen,20,SJ,1584999005,78,78.22,15.64,261.15,10.3
Columbus,75,US,1584998922,70,39.96,-83.0,280.36,5.1
Petropavlovsk-Kamchatskiy,75,RU,1584999099,97,53.05,158.65,276.15,6.0
Lochgilphead,100,GB,1584999100,57,56.04,-5.43,281.48,3.6
Hailar,18,CN,1584999101,73,49.2,119.7,268.42,3.9
Mastic Beach,90,US,1584999102,87,40.77,-72.85,278.01,4.1
Malanje,52,AO,1584999103,88,-9.54,16.34,291.22,0.36
Hasaki,20,JP,1584999104,93,35.73,140.83,275.39,2.1
Nome,90,US,1584998831,74,64.5,-165.41,272.91,2.6
Zhezkazgan,0,KZ,1584999107,88,47.8,67.71,266.52,6.17
Karaman Province,77,TR,1584999108,87,37.08,33.25,275.92,4.13
Aklavik,90,CA,1584999110,60,68.22,-135.01,259.15,3.6
Port Blair,0,IN,1584999111,64,11.67,92.75,300.72,4.58
Yangjiang,4,CN,1584999112,92,21.85,111.97,294.42,0.8
Samur,0,RU,1584999116,74,41.83,48.49,281.92,3.8
Sampit,96,ID,1584999117,97,-2.53,112.95,295.82,1.09
Bambous Virieux,40,MU,1584999118,94,-20.34,57.76,298.96,4.6
Ürümqi,100,CN,1584999119,51,43.8,87.6,277.15,1.0
Kota Belud,20,MY,1584999120,88,6.35,116.43,297.28,2.6
Solnechnyy,0,RU,1584999121,76,50.72,136.63,263.92,2.14
Chico,75,US,1584999115,52,39.73,-121.84,289.74,9.8
Kruisfontein,100,ZA,1584999123,88,-34.0,24.73,291.32,2.75
Makakilo City,90,US,1584999124,78,21.35,-158.09,297.38,6.2
Luwuk,91,ID,1584999125,80,-0.95,122.79,299.92,4.32
Ambon City,40,ID,1584998834,88,-3.7,128.18,297.15,4.6
Olafsvik,43,IS,1584999129,92,64.89,-23.71,275.32,15.17
Pamyat' Parizhskoy Kommuny,100,RU,1584999130,50,56.1,44.5,271.48,6.0
Kalmunai,0,LK,1584999131,69,7.42,81.82,301.02,4.26
Ketchikan,1,US,1584999132,42,55.34,-131.65,281.67,8.2
Brae,100,GB,1584999133,87,60.4,-1.35,280.58,12.3
Mount Gambier,75,AU,1584999134,93,-37.83,140.77,280.15,0.89
Rapid Valley,1,US,1584999135,18,44.06,-103.15,287.57,2.6
Olavarría,60,AR,1584999136,46,-36.89,-60.32,300.37,1.34
Sitka,1,US,1584999137,22,57.05,-135.33,278.88,5.1
Itarema,42,BR,1584999141,84,-2.92,-39.92,298.52,2.01
Taoudenni,2,ML,1584999143,14,22.68,-3.98,295.82,4.97
Pangnirtung,90,CA,1584999144,84,66.15,-65.71,260.15,0.71
Bras-Panon,75,RE,1584999145,78,-21.0,55.68,296.9,8.7
Nelson Bay,75,AU,1584999146,93,-32.72,152.15,290.96,6.2
Atar,0,MR,1584999148,27,20.52,-13.05,292.72,4.93
Yulara,25,AU,1584999012,40,-25.24,130.99,295.15,6.2
Strzelce Krajeńskie,0,PL,1584999151,54,52.88,15.53,271.32,2.72
San Ignacio,20,BZ,1584999152,65,17.16,-89.07,300.57,3.1
La Ronge,20,CA,1584999153,50,55.1,-105.28,271.15,4.6
Vanimo,100,PG,1584999154,90,-2.67,141.3,299.22,6.49
Kolyshley,96,RU,1584999155,59,52.7,44.54,270.37,4.79
Gamba,99,GA,1584999156,89,-2.65,10.0,298.92,1.09
Neryungri,99,RU,1584999157,96,56.67,124.65,265.82,1.47
Provideniya,75,RU,1584999159,92,64.38,-173.3,272.15,9.0
Salamiyah,57,SY,1584999160,51,35.01,37.05,285.82,2.42
Prince Rupert,1,CA,1584999076,74,54.32,-130.32,280.15,4.2
Finschhafen,100,PG,1584999162,69,-6.6,147.87,301.32,1.34
Westport,90,US,1584998873,93,41.14,-73.36,276.86,12.9
Kautokeino,100,NO,1584999165,87,69.01,23.04,271.32,12.41
Sept-Îles,90,CA,1584999093,67,50.2,-66.38,269.22,5.7
Novyy Urgal,0,RU,1584999168,91,51.07,132.56,260.82,0.77
Vostok,98,RU,1584999169,93,46.49,135.88,263.12,2.0
Kariba,51,ZW,1584999170,89,-16.52,28.8,292.12,1.02
Isfana,90,KG,1584999171,76,39.84,69.53,286.15,4.0
Mizque,58,BO,1584999172,60,-17.94,-65.34,293.02,4.84
Labuhan,100,ID,1584999173,87,-6.88,112.21,297.52,0.68
Ukiah,90,US,1584999174,58,39.15,-123.21,285.35,2.1
Talnakh,90,RU,1584999175,84,69.49,88.4,257.15,14.0
Pacific Grove,90,US,1584998940,71,36.62,-121.92,287.37,3.1
Tiznit Province,99,MA,1584999178,90,29.58,-9.5,283.62,7.81
Karasjok,100,NO,1584999179,60,69.47,25.51,277.15,29.3
Tailai,0,CN,1584999180,45,46.38,123.4,273.62,5.06
Smoky Lake,100,CA,1584999162,75,54.12,-112.47,273.71,3.13
Mount Isa,65,AU,1584999182,51,-20.73,139.5,300.15,3.1
Coyhaique,75,CL,1584999049,67,-45.58,-72.07,289.33,2.6
Whitehorse,75,CA,1584998937,44,60.72,-135.05,266.47,2.1
Hargeisa,70,SO,1584999092,73,9.56,44.06,295.52,1.57
Mâncio Lima,89,BR,1584999186,91,-7.61,-72.9,301.42,0.47
Chittarkonda,0,IN,1584999187,81,18.12,82.08,293.62,1.36
Yatou,62,CN,1584999188,52,37.15,122.38,280.52,1.41
Kloulklubed,100,PW,1584999190,89,7.04,134.26,299.02,9.08
Zhigansk,100,RU,1584999191,94,66.77,123.37,263.52,5.17
Leh,80,IN,1584999192,51,34.17,77.58,261.02,1.89
Wattegama,0,LK,1584999193,92,6.8,81.48,294.12,1.23
Sorong,100,ID,1584999194,97,-0.88,131.25,295.52,0.54
Sinnamary,28,GF,1584999196,77,5.38,-52.95,300.12,7.44
Amazar,98,RU,1584999197,97,53.86,120.88,266.02,0.45
LaBelle,1,US,1584999198,54,26.76,-81.44,301.48,5.7
Sørland,75,NO,1584999199,86,67.67,12.69,278.15,14.4
Mosquera,40,CO,1584999200,52,4.71,-74.23,292.15,3.6
Santa Isabel Rio Negro,100,BR,1584999201,69,-0.41,-65.02,303.72,0.82
Amahai,100,ID,1584999202,80,-3.33,128.92,300.22,3.59
Manta,40,EC,1584999203,70,-0.95,-80.73,303.15,5.1
Ankang,0,CN,1584999205,30,32.68,109.02,287.59,9.83
Omboué,100,GA,1584999206,94,-1.57,9.26,296.22,1.14
Vvedenka,0,UA,1584999207,53,49.82,36.51,270.15,3.0
Torbay,5,CA,1584999208,42,47.67,-52.73,272.76,7.2
Fairbanks,90,US,1584999205,92,64.84,-147.72,270.38,4.3
Damietta,1,EG,1584999212,68,31.42,31.81,292.15,2.6
City of San Pedro,20,PH,1584999213,74,14.35,121.02,299.04,1.5
Flinders,40,AU,1584999214,93,-34.58,150.86,289.03,4.87
Tutóia,40,BR,1584999215,83,-2.76,-42.27,301.15,2.6
Sola,90,VU,1584999216,83,-13.88,167.55,301.15,2.6
San Javier,75,ES,1584999217,100,37.81,-0.84,287.35,8.2
Point Fortin,40,TT,1584999218,74,10.18,-61.68,300.49,5.1
Taksimo,66,RU,1584999219,77,56.34,114.88,261.52,2.72
Sīrjān,0,IR,1584999220,59,29.45,55.68,279.12,1.77
Guerrero Negro,100,MX,1584998988,56,27.98,-114.06,293.32,8.48
Sarangani,100,PH,1584999222,75,5.4,125.46,300.52,2.41
Bagotville,90,AU,1584999223,94,-28.98,153.42,292.11,1.5
Rolla,90,US,1584999021,66,37.95,-91.77,284.78,4.1
Baykit,0,RU,1584999225,96,61.67,96.37,246.62,1.4
Innisfail,76,AU,1584999226,90,-17.53,146.03,294.26,2.24
Nizhnevartovsk,95,RU,1584999227,77,60.93,76.55,257.15,2.0
Iquitos,75,PE,1584999228,100,-3.75,-73.25,279.15,2.1
Lavaca,75,US,1584999229,69,28.61,-96.63,299.94,7.2
Vao,81,NC,1584999231,74,-22.67,167.48,297.52,7.53
Novopokrovka,0,UA,1584999232,53,49.84,36.55,270.15,3.0
Nuuk,69,GL,1584999233,57,64.18,-51.72,264.99,1.0
Hualmay,56,PE,1584999234,50,-11.1,-77.61,300.12,5.06
Viedma,100,AR,1584999235,29,-40.81,-63.0,304.82,6.16
Tautira,20,PF,1584999236,70,-17.73,-149.15,303.15,5.1
Mombetsu,43,JP,1584999237,76,44.35,143.35,271.42,5.8
Kargasok,0,RU,1584999238,99,59.06,80.86,253.32,2.27
Matara,0,LK,1584999239,89,5.95,80.54,296.02,2.49
Makat,0,KZ,1584999240,53,47.65,53.35,280.22,5.18
Mouzourás,20,GR,1584999241,93,35.53,24.15,286.46,3.1
Superior,20,US,1584999242,38,46.72,-92.1,279.1,1.18
Camopi,36,GF,1584999243,94,3.17,-52.32,298.12,1.91
Puerto del Rosario,20,ES,1584999244,68,28.5,-13.86,290.71,7.7
Launceston,0,AU,1584999245,100,-41.45,147.17,278.64,2.6
Busko-Zdrój,0,PL,1584999247,41,50.47,20.72,271.78,2.68
Grajaú,63,BR,1584998950,85,-5.82,-46.14,299.42,0.85
Tyukhtet,100,RU,1584999251,96,56.54,89.3,258.02,1.89
Ejido,100,VE,1584999252,93,8.55,-71.24,284.92,0.98
Barra do Garças,75,BR,1584999253,79,-15.89,-52.26,302.15,1.0
São Gabriel,0,BR,1584999254,41,-30.34,-54.32,301.12,1.96
Taltal,0,CL,1584999255,72,-25.4,-70.48,292.72,3.19
Lagoa,67,PT,1584999256,77,39.05,-27.98,288.02,7.5
Hays,40,US,1584999258,65,30.05,-98.03,299.46,6.2
Moberly,90,US,1584999259,76,39.42,-92.44,283.16,3.6
Luanda,75,AO,1584998686,83,-8.84,13.23,301.15,2.6
Thinadhoo,94,MV,1584999261,76,0.53,72.93,301.42,4.9
Carutapera,67,BR,1584999262,76,-1.2,-46.02,301.52,6.32
Esil,98,KZ,1584999263,91,51.96,66.4,265.82,2.0
Marawi,100,PH,1584999264,87,8.0,124.29,296.48,2.68
Tūkrah,86,LY,1584999265,79,32.53,20.58,288.72,6.13
Eureka,90,US,1584999267,62,40.8,-124.16,285.56,5.1
Mareeba,90,AU,1584999268,88,-17.0,145.43,295.97,5.1
Dudinka,90,RU,1584999270,84,69.41,86.18,257.15,14.0
Eyl,100,SO,1584999271,75,7.98,49.82,301.42,3.26
Asău,40,RO,1584999272,64,46.43,26.4,273.72,4.1
Alyangula,40,AU,1584999273,88,-13.85,136.42,299.15,2.1
Karratha,0,AU,1584999274,70,-20.74,116.85,302.72,6.32
Mapimí,20,MX,1584999275,11,25.82,-103.85,308.15,2.6
Mariehamn,88,AX,1584999186,69,60.1,19.93,276.15,6.7
Oddur,100,SO,1584999277,71,4.12,43.89,298.62,6.43
Lyubytino,0,RU,1584999279,49,58.81,33.39,269.42,1.65
Anchorage,40,US,1584999066,59,61.22,-149.9,273.1,0.38
Masalli,75,KR,1584999282,100,34.8,126.66,276.15,1.0
Haapiti,20,PF,1584999284,70,-17.57,-149.87,303.15,5.1
Shādegān,0,IR,1584999285,76,30.65,48.66,287.65,1.01
Guiratinga,52,BR,1584999286,77,-16.35,-53.76,301.32,0.48
Bilma,0,NE,1584999287,13,18.69,12.92,301.52,1.7
Fortuna,90,US,1584999288,62,40.6,-124.16,285.51,5.1
Cayenne,10,GF,1584999289,74,4.93,-52.33,300.15,3.1
Yerbogachën,95,RU,1584999290,92,61.28,108.01,252.52,3.9
Valparaíso,0,CL,1584999293,49,-33.04,-71.63,294.0,3.6
Saint-Pierre,36,RE,1584999294,78,-21.34,55.48,297.09,2.6
Lazurne,85,UA,1584999296,69,46.08,32.53,272.59,12.43
Namwala,99,ZM,1584999297,97,-15.75,26.44,291.02,1.82
De-Kastri,100,RU,1584999298,79,51.47,140.78,266.42,5.68
Skjervøy,75,NO,1584999299,65,70.03,20.97,278.15,4.1
Roald,75,NO,1584999300,49,62.58,6.13,281.34,12.3
Mandi Bahauddin,100,PK,1584999302,59,32.58,73.48,292.42,3.13
Ciudad Bolivar,46,VE,1584999303,31,8.12,-63.55,308.02,5.24
Council Bluffs,90,US,1584999304,87,41.26,-95.86,281.91,2.6
Kisújszállás,90,HU,1584999305,62,47.22,20.77,274.07,9.8
Srīvardhan,1,IN,1584999307,83,18.03,73.02,297.52,4.07
Ginir,38,ET,1584999308,88,7.13,40.7,289.72,1.19
Matam,100,SN,1584999309,20,15.62,-13.33,303.15,4.1
Salinas,90,US,1584999311,76,36.68,-121.66,287.47,5.7
Djambala,71,CG,1584999312,75,-2.54,14.75,295.62,1.47
Vestmannaeyjar,100,IS,1584999313,69,63.44,-20.27,276.42,18.97
Lata,40,PT,1584999314,87,40.16,-8.33,285.95,0.5
Dongsheng,100,CN,1584999315,80,39.82,109.98,280.52,2.09
Melfi,75,IT,1584999316,85,41.0,15.65,273.34,7.2
Jalu,0,LY,1584999317,64,29.03,21.55,290.82,5.92
Loíza,75,PR,1584999318,65,18.43,-65.88,298.07,7.2
Hambantota,0,LK,1584999319,84,6.12,81.12,298.32,4.85
Poya,100,NC,1584999320,76,-21.35,165.15,298.72,8.78
San Andrés,20,CO,1584999088,66,12.58,-81.7,303.15,5.7
Bjørnevatn,98,NO,1584999322,74,69.67,29.98,275.05,19.0
Boende,58,CD,1584999323,73,-0.22,20.87,297.52,0.55
Tilichiki,100,RU,1584999324,92,60.47,166.1,271.22,2.92
La Sarre,100,CA,1584999325,80,48.8,-79.2,273.12,4.45
Revin,0,FR,1584999327,32,49.94,4.63,277.34,5.1
Chibuto,0,MZ,1584999328,95,-24.69,33.53,294.72,1.55
Bereket,100,TM,1584999330,50,39.24,55.52,281.42,1.81
Mackay,40,AU,1584999333,78,-21.15,149.2,298.38,7.7
Wasserburg,0,DE,1584999334,54,48.44,10.27,271.47,3.6
Ostrovnoy,93,RU,1584999335,86,68.05,39.51,272.92,11.14
Kutno,0,PL,1584999336,39,52.23,19.36,271.29,3.6
Kalabo,87,ZM,1584999244,88,-14.97,22.68,291.42,1.97
Isangel,75,VU,1584999338,94,-19.55,169.27,298.15,2.6
Camargo,2,MX,1584999339,8,27.67,-105.17,305.92,5.11
Manzanillo,0,CU,1584999340,26,20.34,-77.12,307.12,0.63
Dwārka,42,IN,1584999341,83,22.24,68.97,297.52,6.27
Konstantinovka,0,RU,1584999342,75,49.62,127.98,267.72,3.43
Sompeta,0,IN,1584999343,77,18.93,84.6,296.12,1.92
Yima,0,CN,1584999344,59,34.74,111.88,284.22,1.1
Lubao,40,PH,1584999346,83,14.92,120.55,298.04,1.0
Lhokseumawe,100,ID,1584999347,89,5.18,97.15,294.92,0.84
Muisne,40,EC,1584999349,83,0.6,-80.03,302.15,3.6
Grand Gaube,40,MU,1584999351,94,-20.01,57.66,298.63,4.6
El Sauzal de Rodríguez,30,MX,1584999352,79,31.9,-116.68,292.27,1.79
Werda,44,BW,1584999353,37,-25.27,23.28,298.42,4.04
Alice Springs,14,AU,1584999354,52,-23.7,133.88,292.15,2.1
Bonthe,100,SL,1584999355,85,7.53,-12.51,299.72,2.84
Changji,100,CN,1584999356,51,44.02,87.32,277.15,1.0
Thibodaux,75,US,1584999083,58,29.8,-90.82,301.71,5.1
Chase,75,CA,1584999358,34,50.82,-119.69,281.83,1.27
Baijiantan,55,CN,1584999359,33,45.63,85.18,276.72,4.35
Songea,5,TZ,1584999360,88,-10.68,35.65,294.15,0.42
Visby,10,SE,1584999361,80,57.64,18.3,274.74,6.7
Egvekinot,98,RU,1584999362,98,66.32,-179.17,268.62,3.33
Boueni,0,YT,1584999363,78,-12.9,45.08,301.15,2.1
Voyvozh,2,RU,1584999364,92,62.89,54.96,267.02,3.69
Biloela,0,AU,1584999365,81,-24.42,150.5,293.82,4.37
Rabo de Peixe,75,PT,1584999367,66,37.8,-25.58,286.15,2.6
Pokhara,0,NP,1584999247,71,28.23,83.98,288.32,1.34
Port-Gentil,100,GA,1584999369,74,-0.72,8.78,300.32,3.93
Sesheke,78,ZM,1584999370,94,-17.48,24.3,294.15,1.5
Hudiksvall,80,SE,1584999371,59,61.73,17.1,275.37,1.34
‘Ewa Beach,40,US,1584999332,54,21.32,-158.01,297.49,8.2
Muros,75,ES,1584999373,87,42.78,-9.06,283.98,3.6
Nāgaur,99,IN,1584999375,41,27.2,73.73,296.92,1.29
Awjilah,0,LY,1584999376,64,29.11,21.29,290.82,5.92
Shitkino,59,RU,1584999377,89,56.37,98.35,260.02,2.67
Värnamo,28,SE,1584999379,74,57.19,14.04,272.08,3.6
Zhangye,100,CN,1584999380,26,38.93,100.45,282.72,1.42
Alberton,100,CA,1584999381,9,46.82,-64.07,273.15,4.55
Mnogovershinnyy,0,RU,1584999382,75,53.94,139.92,263.22,2.07
Ndjolé,100,GA,1584999383,99,-0.18,10.76,296.22,1.45
Rawson,99,AR,1584999386,39,-43.3,-65.1,297.92,8.08
Kichera,33,RU,1584999387,80,55.94,110.1,259.82,2.84
Hegang,0,CN,1584999388,61,47.4,130.37,269.72,1.71
Cabedelo,20,BR,1584999159,79,-6.98,-34.83,302.15,3.6
Cap Malheureux,40,MU,1584999390,94,-19.98,57.61,298.62,4.6
Yoichi,75,JP,1584999391,94,43.2,140.77,271.77,3.1
Amuntai,100,ID,1584999392,98,-2.42,115.25,295.22,0.51
Bima,51,ID,1584999393,95,-8.47,118.72,294.72,0.44
Pisco,23,PE,1584999394,30,-13.7,-76.22,295.99,10.8
Zabid,17,YE,1584999395,85,14.2,43.32,297.22,3.69
Tateyama,20,JP,1584999396,52,34.98,139.87,278.9,10.3
Phibun Mangsahan,20,TH,1584999397,78,15.24,105.23,299.15,1.0
Maturin,23,VE,1584999166,51,9.75,-63.18,303.92,5.28
Alta Floresta,100,BR,1584999399,91,-9.88,-56.09,299.92,1.26
Laibin,3,CN,1584999400,86,23.7,109.27,295.62,2.24
Sault Ste. Marie,90,CA,1584999332,60,46.52,-84.33,276.19,3.1
Pemba,75,MZ,1584999405,83,-12.97,40.52,300.15,1.5
Caldas Novas,8,BR,1584999406,89,-17.74,-48.62,296.82,2.27
Pahrump,75,US,1584999407,47,36.21,-115.98,288.76,7.2
Comodoro Rivadavia,40,AR,1584999408,28,-45.87,-67.5,300.15,12.9
Spearfish,75,US,1584999409,20,44.49,-103.86,285.99,4.6
Marabba,100,SD,1584999410,5,12.35,32.18,299.12,4.34
Adrar,1,MR,1584999411,22,20.5,-10.07,293.12,4.89
Tame,67,CO,1584999412,31,6.46,-71.73,308.52,2.85
Helena,90,US,1584999287,22,46.59,-112.04,284.25,7.2
Constitución,27,CL,1584999414,69,-35.33,-72.42,290.82,4.22
Gaoua,100,BF,1584999415,52,10.3,-3.25,303.02,6.11
São Gabriel da Cachoeira,100,BR,1584999416,72,-0.13,-67.09,302.82,1.19
Rock Sound,0,BS,1584999417,79,24.9,-76.2,296.62,5.58
Cabra,38,ES,1584999418,87,37.47,-4.44,283.09,2.1
Gillette,1,US,1584999419,19,44.29,-105.5,286.55,4.1
Hobyo,95,SO,1584999420,76,5.35,48.53,301.32,5.0
Saint-Leu,83,RE,1584999421,78,-21.15,55.28,296.96,2.6
Oneida,90,US,1584999423,99,43.2,-75.47,273.16,6.2
Pontal do Paraná,40,BR,1584999424,82,-25.65,-48.51,295.24,5.7
Vondrozo,18,MG,1584999425,93,-22.82,47.28,293.72,1.02
Davidson,90,US,1584999426,67,36.15,-86.78,287.33,2.6
Chino Valley,90,US,1584999427,81,34.76,-112.45,284.31,7.7
Flin Flon,20,CA,1584999428,46,54.77,-101.86,272.15,1.0
Loralai,35,PK,1584999429,96,30.37,68.6,283.22,1.63
